{
"type": "FeatureCollection",
"name": "JPT_KOD_JE_1805",
"features": [
{ "type": "Feature", "properties": { "ref:csioz": 1230195, "addr:housenumber": "1106A", "addr:city": "Osobnica", "addr:postcode": "33-241", "amenity": "pharmacy" }, "geometry": { "type": "Point", "coordinates": [ 21.404523262312679, 49.699918852714625 ] } },
{ "type": "Feature", "properties": { "ref:csioz": 1140818, "addr:housenumber": "20", "addr:city": "Jasło", "addr:postcode": "38-200", "amenity": "pharmacy", "addr:street": "Krzysztofa Kamila Baczyńskiego" }, "geometry": { "type": "Point", "coordinates": [ 21.461843836700982, 49.738320179325441 ] } },
{ "type": "Feature", "properties": { "ref:csioz": 1140839, "addr:housenumber": "66", "addr:city": "Jasło", "addr:postcode": "38-200", "amenity": "pharmacy", "addr:street": "gen. Grota-Roweckiego", "name": "Apteka Arnika" }, "geometry": { "type": "Point", "coordinates": [ 21.462443104464239, 49.738348313075463 ] } },
{ "type": "Feature", "properties": { "ref:csioz": 1140852, "addr:housenumber": "35", "addr:city": "Jasło", "addr:postcode": "38-200", "amenity": "pharmacy", "addr:street": "Jana Pawła II", "name": "Farm-Lider" }, "geometry": { "type": "Point", "coordinates": [ 21.481148103644106, 49.745784192116815 ] } },
{ "type": "Feature", "properties": { "ref:csioz": 1141878, "addr:housenumber": "17", "addr:city": "Jasło", "addr:postcode": "38-200", "amenity": "pharmacy", "addr:street": "Stanisława Staszica", "name": "Apteka Pod Gwiazdą" }, "geometry": { "type": "Point", "coordinates": [ 21.471400661954981, 49.739656554374534 ] } },
{ "type": "Feature", "properties": { "ref:csioz": 1141886, "addr:housenumber": "22", "addr:city": "Jasło", "addr:postcode": "38-200", "amenity": "pharmacy", "addr:street": "Stanisława Staszica", "name": "Doz Apteka. Dbam O Zdrowie. Elixir" }, "geometry": { "type": "Point", "coordinates": [ 21.470883982022251, 49.741079643840848 ] } },
{ "type": "Feature", "properties": { "ref:csioz": 1141893, "addr:housenumber": "2a", "addr:city": "Jasło", "addr:postcode": "38-200", "amenity": "pharmacy", "addr:street": "Szkolna", "name": "Alba" }, "geometry": { "type": "Point", "coordinates": [ 21.462453000008512, 49.74276500001217 ] } },
{ "type": "Feature", "properties": { "ref:csioz": 1141908, "addr:housenumber": "13", "addr:city": "Jasło", "addr:postcode": "38-200", "amenity": "pharmacy", "addr:street": "3 Maja", "name": "Apteka Rodzinna" }, "geometry": { "type": "Point", "coordinates": [ 21.469089671694576, 49.742732064176053 ] } },
{ "type": "Feature", "properties": { "ref:csioz": 1141919, "addr:housenumber": "101", "addr:city": "Jasło", "addr:postcode": "38-200", "amenity": "pharmacy", "addr:street": "3 Maja", "name": "Salus" }, "geometry": { "type": "Point", "coordinates": [ 21.452652970149963, 49.726309338878764 ] } },
{ "type": "Feature", "properties": { "ref:csioz": 1141924, "addr:housenumber": "397", "addr:city": "Brzyska", "addr:postcode": "38-212", "amenity": "pharmacy" }, "geometry": { "type": "Point", "coordinates": [ 21.387460000007284, 49.819029000012264 ] } },
{ "type": "Feature", "properties": { "ref:csioz": 1201518, "addr:housenumber": "360", "addr:city": "Harklowa", "addr:postcode": "38-243", "amenity": "pharmacy", "name": "Salus" }, "geometry": { "type": "Point", "coordinates": [ 21.344196703730759, 49.715184960040297 ] } },
{ "type": "Feature", "properties": { "ref:csioz": 1136605, "addr:housenumber": "1A", "addr:city": "Jasło", "addr:postcode": "38-200", "amenity": "pharmacy", "addr:street": "Za Bursą", "name": "Zakład Pielęgnacyjno-Opiekuńczy Caritas Diecezji Rzeszowskiej Okręg Jasło" }, "geometry": { "type": "Point", "coordinates": [ 21.464253992213756, 49.741736116702896 ] } },
{ "type": "Feature", "properties": { "ref:csioz": 1138405, "addr:housenumber": "22", "addr:city": "Jasło", "addr:postcode": "38-200", "amenity": "pharmacy", "addr:street": "Lwowska", "name": "Apteka Szpitalna" }, "geometry": { "type": "Point", "coordinates": [ 21.480498943661701, 49.752127630140151 ] } },
{ "type": "Feature", "properties": { "ref:csioz": 1140805, "addr:housenumber": "15", "addr:city": "Jasło", "addr:postcode": "38-200", "amenity": "pharmacy", "addr:street": "Krzysztofa Kamila Baczyńskiego", "name": "\"'Dr.Max'\"" }, "geometry": { "type": "Point", "coordinates": [ 21.466007553989819, 49.737805459916224 ] } },
{ "type": "Feature", "properties": { "ref:csioz": 1140860, "addr:housenumber": "14", "addr:city": "Jasło", "addr:postcode": "38-200", "amenity": "pharmacy", "addr:street": "Kazimierza Wielkiego", "name": "Apteka Pod Gwiazdą" }, "geometry": { "type": "Point", "coordinates": [ 21.473416799789618, 49.749596933381248 ] } },
{ "type": "Feature", "properties": { "ref:csioz": 1140871, "addr:housenumber": "18", "addr:city": "Jasło", "addr:postcode": "38-200", "amenity": "pharmacy", "addr:street": "Hugona Kołłątaja" }, "geometry": { "type": "Point", "coordinates": [ 21.471061225028041, 49.744104974004827 ] } },
{ "type": "Feature", "properties": { "ref:csioz": 1140883, "addr:housenumber": "37A", "addr:city": "Jasło", "addr:postcode": "38-200", "amenity": "pharmacy", "addr:street": "Tadeusza Kościuszki", "name": "Centrum" }, "geometry": { "type": "Point", "coordinates": [ 21.473571859529596, 49.74380612014928 ] } },
{ "type": "Feature", "properties": { "ref:csioz": 1140894, "addr:housenumber": "9", "addr:city": "Jasło", "addr:postcode": "38-200", "amenity": "pharmacy", "addr:street": "Lwowska", "name": "Lubelska 1", "addr:flats": "11" }, "geometry": { "type": "Point", "coordinates": [ 21.475345951058152, 49.752512970520428 ] } },
{ "type": "Feature", "properties": { "ref:csioz": 1140901, "addr:housenumber": "3", "addr:city": "Jasło", "addr:postcode": "38-200", "amenity": "pharmacy", "addr:street": "Adama Mickiewicza", "name": "Apteka Rodzinna Ii" }, "geometry": { "type": "Point", "coordinates": [ 21.469816932829158, 49.745371327781271 ] } },
{ "type": "Feature", "properties": { "ref:csioz": 1140917, "addr:housenumber": "5", "addr:city": "Jasło", "addr:postcode": "38-200", "amenity": "pharmacy", "addr:street": "Adama Mickiewicza" }, "geometry": { "type": "Point", "coordinates": [ 21.469213864024681, 49.745508661574448 ] } },
{ "type": "Feature", "properties": { "ref:csioz": 1140963, "addr:housenumber": "23", "addr:city": "Jasło", "addr:postcode": "38-200", "amenity": "pharmacy", "addr:street": "Rynek", "name": "\"'Dr.Max'\"" }, "geometry": { "type": "Point", "coordinates": [ 21.473400840838583, 49.747117339464239 ] } },
{ "type": "Feature", "properties": { "ref:csioz": 1140949, "addr:housenumber": "10", "addr:city": "Jasło", "addr:postcode": "38-200", "amenity": "pharmacy", "addr:street": "Żwirki i Wigury", "name": "Apteka Gemini" }, "geometry": { "type": "Point", "coordinates": [ 21.473022804190826, 49.746325628002971 ] } },
{ "type": "Feature", "properties": { "ref:csioz": 1141943, "addr:housenumber": "645", "addr:city": "Dębowiec", "addr:postcode": "38-220", "amenity": "pharmacy", "name": "Apteka Pod Gwiazdą" }, "geometry": { "type": "Point", "coordinates": [ 21.461484226540815, 49.686484435298524 ] } },
{ "type": "Feature", "properties": { "ref:csioz": 1141962, "addr:housenumber": "11", "addr:city": "Kołaczyce", "addr:postcode": "38-213", "amenity": "pharmacy", "addr:street": "Adama Mickiewicza", "name": "Św. Anny" }, "geometry": { "type": "Point", "coordinates": [ 21.433034157134838, 49.807885799063399 ] } },
{ "type": "Feature", "properties": { "ref:csioz": 1141970, "addr:housenumber": "14", "addr:city": "Kołaczyce", "addr:postcode": "38-213", "amenity": "pharmacy", "addr:street": "Rynek", "name": "Vita" }, "geometry": { "type": "Point", "coordinates": [ 21.434139634163195, 49.806878484798276 ] } },
{ "type": "Feature", "properties": { "ref:csioz": 1142017, "addr:housenumber": "15", "addr:city": "Skołyszyn", "addr:postcode": "38-242", "amenity": "pharmacy", "name": "Remedium" }, "geometry": { "type": "Point", "coordinates": [ 21.336116470053426, 49.749622326677532 ] } },
{ "type": "Feature", "properties": { "ref:csioz": 1171983, "addr:housenumber": "36a", "addr:city": "Jasło", "addr:postcode": "38-200", "amenity": "pharmacy", "addr:street": "Szkolna", "name": "Alba Iii" }, "geometry": { "type": "Point", "coordinates": [ 21.461017000008479, 49.745521000012168 ] } },
{ "type": "Feature", "properties": { "ref:csioz": 1190249, "addr:housenumber": "20", "addr:city": "Jasło", "addr:postcode": "38-200", "amenity": "pharmacy", "addr:street": "Rynek", "name": "Niezapominajka Dla Całej Rodziny" }, "geometry": { "type": "Point", "coordinates": [ 21.473555181297499, 49.74743719906747 ] } },
{ "type": "Feature", "properties": { "ref:csioz": 1196686, "addr:housenumber": "108", "addr:city": "Jasło", "addr:postcode": "38-200", "amenity": "pharmacy", "addr:street": "Adama Mickiewicza", "name": "Alba Bis" }, "geometry": { "type": "Point", "coordinates": [ 21.422059000007835, 49.766363000012191 ] } },
{ "type": "Feature", "properties": { "ref:csioz": 1204134, "addr:housenumber": "21", "addr:city": "Jasło", "addr:postcode": "38-200", "amenity": "pharmacy", "addr:street": "Tadeusza Kościuszki", "name": "Apteka Słoneczna" }, "geometry": { "type": "Point", "coordinates": [ 21.473672139776838, 49.745454751737725 ] } },
{ "type": "Feature", "properties": { "ref:csioz": 1213683, "addr:housenumber": "1A", "addr:city": "Jasło", "addr:postcode": "38-200", "amenity": "pharmacy", "addr:street": "Rafineryjna", "name": "Apteka Remedium" }, "geometry": { "type": "Point", "coordinates": [ 21.451036965171191, 49.727378618926224 ] } },
{ "type": "Feature", "properties": { "ref:csioz": 1195676, "addr:housenumber": "8", "addr:city": "Kołaczyce", "addr:postcode": "38-213", "amenity": "pharmacy", "addr:street": "Rynek", "name": "\"Apteka \"\"Rynek\"\"\"" }, "geometry": { "type": "Point", "coordinates": [ 21.433753643823731, 49.80746657083013 ] } },
{ "type": "Feature", "properties": { "ref:csioz": 1142025, "addr:housenumber": "256", "addr:city": "Tarnowiec", "addr:postcode": "38-204", "amenity": "pharmacy" }, "geometry": { "type": "Point", "coordinates": [ 21.575470600052654, 49.731515808381971 ] } },
{ "type": "Feature", "properties": { "ref:csioz": 1142096, "addr:housenumber": "1", "addr:city": "Święcany", "addr:postcode": "38-242", "amenity": "pharmacy" }, "geometry": { "type": "Point", "coordinates": [ 21.273563945911317, 49.770026997355153 ] } },
{ "type": "Feature", "properties": { "ref:csioz": 1213558, "addr:housenumber": "24", "addr:city": "Nowy Żmigród", "addr:postcode": "38-230", "amenity": "pharmacy", "addr:street": "Basztowa", "name": "Apteka Żmigrodzka" }, "geometry": { "type": "Point", "coordinates": [ 21.525483479875419, 49.606897249076574 ] } },
{ "type": "Feature", "properties": { "ref:csioz": 1141981, "addr:housenumber": "4", "addr:city": "Nowy Żmigród", "addr:postcode": "38-230", "amenity": "pharmacy", "addr:street": "Basztowa" }, "geometry": { "type": "Point", "coordinates": [ 21.524681978158259, 49.605570202526799 ] } },
{ "type": "Feature", "properties": { "ref:csioz": 1141997, "addr:housenumber": "103", "addr:city": "Osiek Jasielski", "addr:postcode": "38-223", "amenity": "pharmacy" }, "geometry": { "type": "Point", "coordinates": [ 21.490592307236042, 49.634391664887865 ] } },
{ "type": "Feature", "properties": { "ref:csioz": 1142049, "addr:housenumber": "32", "addr:city": "Krempna", "addr:postcode": "38-232", "amenity": "pharmacy", "name": "Fragaria" }, "geometry": { "type": "Point", "coordinates": [ 21.49993687380621, 49.51088068072157 ] } },
{ "type": "Feature", "properties": { "ref:csioz": 1142063, "addr:housenumber": "2", "addr:city": "Nowy Żmigród", "addr:postcode": "38-230", "amenity": "pharmacy", "addr:street": "Rynek", "name": "Arnika" }, "geometry": { "type": "Point", "coordinates": [ 21.523597480731365, 49.604937369501272 ] } },
{ "type": "Feature", "properties": { "ref:csioz": 1165067, "addr:housenumber": "45", "addr:city": "Nienaszów", "addr:postcode": "38-230", "amenity": "pharmacy", "name": "W Nienaszowie" }, "geometry": { "type": "Point", "coordinates": [ 21.58713088379622, 49.622368794959677 ] } },
{ "type": "Feature", "properties": { "ref:csioz": 1230857, "addr:housenumber": "21", "addr:city": "Jasło", "addr:postcode": "38-200", "amenity": "pharmacy", "addr:street": "Stanisława Staszica", "name": null, "addr:flats": null }, "geometry": { "type": "Point", "coordinates": [ 21.471815883741961, 49.7394067316486 ] } },
{ "type": "Feature", "properties": { "ref:csioz": 1231264, "addr:housenumber": "824", "addr:city": "Dębowiec", "addr:postcode": "38-220", "amenity": "pharmacy", "addr:street": null, "name": "PHARMA+", "addr:flats": null }, "geometry": { "type": "Point", "coordinates": [ 21.462325876838403, 49.692193159538682 ] } }
]
}
