{
"type": "FeatureCollection",
"name": "pow_lubelski_apteki_poprawionee",
"crs": { "type": "name", "properties": { "name": "urn:ogc:def:crs:OGC:1.3:CRS84" } },
"features": [
{ "type": "Feature", "properties": { "ref:csioz": 1158804, "addr:housenumber": "6", "addr:city": "Wysokie", "addr:postcode": "23-145", "amenity": "pharmacy", "addr:street": null, "name": null, "addr:flats": null }, "geometry": { "type": "Point", "coordinates": [ 22.666056378848662, 50.909126967275292 ] } },
{ "type": "Feature", "properties": { "ref:csioz": 1163933, "addr:housenumber": "36", "addr:city": "Bychawa", "addr:postcode": "23-100", "amenity": "pharmacy", "addr:street": "Piłsudskiego", "name": null, "addr:flats": null }, "geometry": { "type": "Point", "coordinates": [ 22.539336107654265, 51.013029341669991 ] } },
{ "type": "Feature", "properties": { "ref:csioz": 1190296, "addr:housenumber": "28", "addr:city": "Bychawa", "addr:postcode": null, "amenity": "pharmacy", "addr:street": "marsz. Józefa Piłsudskiego", "name": null, "addr:flats": null }, "geometry": { "type": "Point", "coordinates": [ 22.537314543068135, 51.013329596792168 ] } },
{ "type": "Feature", "properties": { "ref:csioz": 1210628, "addr:housenumber": "27", "addr:city": "Bychawa", "addr:postcode": "23-100", "amenity": "pharmacy", "addr:street": "marsz. Józefa  Piłsudskiego", "name": "Apteka Rodzinna", "addr:flats": null }, "geometry": { "type": "Point", "coordinates": [ 22.535087690056471, 51.014996309104646 ] } },
{ "type": "Feature", "properties": { "ref:csioz": 1162577, "addr:housenumber": "8", "addr:city": "Krzczonów-Wójtostwo", "addr:postcode": "23-110", "amenity": "pharmacy", "addr:street": "Leśna", "name": null, "addr:flats": null }, "geometry": { "type": "Point", "coordinates": [ 22.714087867821227, 51.007277767864238 ] } },
{ "type": "Feature", "properties": { "ref:csioz": 1157486, "addr:housenumber": "28", "addr:city": "Bychawa", "addr:postcode": "23-100", "amenity": "pharmacy", "addr:street": "Piłsudskiego", "name": "Apteka Zdrojowa Za Szpitalem", "addr:flats": null }, "geometry": { "type": "Point", "coordinates": [ 22.537314543068135, 51.013329596792168 ] } },
{ "type": "Feature", "properties": { "ref:csioz": 1161944, "addr:housenumber": "14", "addr:city": "Bychawa", "addr:postcode": "23-100", "amenity": "pharmacy", "addr:street": "Piłsudskiego", "name": "Doz Apteka Dbam O Zdrowie", "addr:flats": null }, "geometry": { "type": "Point", "coordinates": [ 22.533990833868707, 51.015382937367043 ] } },
{ "type": "Feature", "properties": { "ref:csioz": 1161953, "addr:housenumber": "6", "addr:city": "Krzczonów", "addr:postcode": "23-110", "amenity": "pharmacy", "addr:street": "Spokojna", "name": null, "addr:flats": null }, "geometry": { "type": "Point", "coordinates": [ 22.709264079718356, 51.006159272996804 ] } },
{ "type": "Feature", "properties": { "ref:csioz": 1166429, "addr:housenumber": "7", "addr:city": "Wysokie", "addr:postcode": "23-145", "amenity": "pharmacy", "addr:street": "Rynek Jabłonowskich", "name": "Apteka Vitamar Mgr Mariola Stanicka", "addr:flats": null }, "geometry": { "type": "Point", "coordinates": [ 22.665421490403315, 50.908828040528959 ] } },
{ "type": "Feature", "properties": { "ref:csioz": 1184024, "addr:housenumber": "18", "addr:city": "Bychawa", "addr:postcode": "23-100", "amenity": "pharmacy", "addr:street": "marsz. Józefa Piłsudskiego", "name": "Pod Aniołem", "addr:flats": null }, "geometry": { "type": "Point", "coordinates": [ 22.534906689958095, 51.014780417763532 ] } },
{ "type": "Feature", "properties": { "ref:csioz": 1184633, "addr:housenumber": "12", "addr:city": "Krzczonów", "addr:postcode": "23-110", "amenity": "pharmacy", "addr:street": "Stefana Żeromskiego", "name": "Apteka Vikamed", "addr:flats": null }, "geometry": { "type": "Point", "coordinates": [ 22.707533550858614, 51.006286108502621 ] } },
{ "type": "Feature", "properties": { "ref:csioz": 1189740, "addr:housenumber": "28", "addr:city": "Bychawa", "addr:postcode": "23-100", "amenity": "pharmacy", "addr:street": "marsz. Józefa Piłsudskiego", "name": "Dfs", "addr:flats": null }, "geometry": { "type": "Point", "coordinates": [ 22.537314543068135, 51.013329596792168 ] } },
{ "type": "Feature", "properties": { "ref:csioz": 1106391, "addr:housenumber": "42", "addr:city": "Tomaszowice-Kolonia", "addr:postcode": "21-008", "amenity": "pharmacy", "addr:street": null, "name": null, "addr:flats": null }, "geometry": { "type": "Point", "coordinates": [ 22.370910422059978, 51.276945010085768 ] } },
{ "type": "Feature", "properties": { "ref:csioz": 1153605, "addr:housenumber": "81", "addr:city": "Niedrzwica Kościelna", "addr:postcode": "24-222", "amenity": "pharmacy", "addr:street": "Krakowska", "name": "Farmacea", "addr:flats": null }, "geometry": { "type": "Point", "coordinates": [ 22.365759307778568, 51.090217197493502 ] } },
{ "type": "Feature", "properties": { "ref:csioz": 1162434, "addr:housenumber": "1", "addr:city": "Niemce", "addr:postcode": "21-025", "amenity": "pharmacy", "addr:street": "Różana", "name": null, "addr:flats": null }, "geometry": { "type": "Point", "coordinates": [ 22.624611779355082, 51.359454748122502 ] } },
{ "type": "Feature", "properties": { "ref:csioz": 1162695, "addr:housenumber": "165", "addr:city": "Mętów", "addr:postcode": "20-388", "amenity": "pharmacy", "addr:street": null, "name": null, "addr:flats": null }, "geometry": { "type": "Point", "coordinates": [ 22.590752685115405, 51.147145977776468 ] } },
{ "type": "Feature", "properties": { "ref:csioz": 1162948, "addr:housenumber": "57", "addr:city": "Niedrzwica Duża", "addr:postcode": "24-220", "amenity": "pharmacy", "addr:street": "Partyzancka", "name": null, "addr:flats": null }, "geometry": { "type": "Point", "coordinates": [ 22.388042014412566, 51.110899325322364 ] } },
{ "type": "Feature", "properties": { "ref:csioz": 1163172, "addr:housenumber": "16", "addr:city": "Niedrzwica Duża", "addr:postcode": "24-220", "amenity": "pharmacy", "addr:street": "Krótka", "name": "Apteka Nova", "addr:flats": null }, "geometry": { "type": "Point", "coordinates": [ 22.385317983896432, 51.110638002201441 ] } },
{ "type": "Feature", "properties": { "ref:csioz": 1194197, "addr:housenumber": "67 A", "addr:city": "Kozubszczyzna", "addr:postcode": "21-030", "amenity": "pharmacy", "addr:street": null, "name": "Vital Centrum", "addr:flats": null }, "geometry": { "type": "Point", "coordinates": [ 22.430873497131628, 51.221083158573713 ] } },
{ "type": "Feature", "properties": { "ref:csioz": 1221440, "addr:housenumber": "6", "addr:city": "Dominów", "addr:postcode": "20-388", "amenity": "pharmacy", "addr:street": "Rynek", "name": "-", "addr:flats": "2" }, "geometry": { "type": "Point", "coordinates": [ 22.596426756182858, 51.170754783945995 ] } },
{ "type": "Feature", "properties": { "ref:csioz": 1227566, "addr:housenumber": "144D", "addr:city": "Dąbrowica", "addr:postcode": "21-008", "amenity": "pharmacy", "addr:street": null, "name": "\"Apteka \"\"Piguła\"\"\"", "addr:flats": null }, "geometry": { "type": "Point", "coordinates": [ 22.46475957625395, 51.255944027516115 ] } },
{ "type": "Feature", "properties": { "ref:csioz": 1163109, "addr:housenumber": "12", "addr:city": "Turka", "addr:postcode": "21-258", "amenity": "pharmacy", "addr:street": "Lipowa", "name": null, "addr:flats": null }, "geometry": { "type": "Point", "coordinates": [ 22.660525669860821, 51.274494088895999 ] } },
{ "type": "Feature", "properties": { "ref:csioz": 1124293, "addr:housenumber": "154B", "addr:city": "Piotrowice", "addr:postcode": "23-107", "amenity": "pharmacy", "addr:street": null, "name": "Amber", "addr:flats": null }, "geometry": { "type": "Point", "coordinates": [ 22.478253810427031, 51.086916332716889 ] } },
{ "type": "Feature", "properties": { "ref:csioz": 1157949, "addr:housenumber": "61", "addr:city": "Turka", "addr:postcode": "21-258", "amenity": "pharmacy", "addr:street": "Klonowa", "name": null, "addr:flats": null }, "geometry": { "type": "Point", "coordinates": [ 22.661066222914055, 51.278724776043546 ] } },
{ "type": "Feature", "properties": { "ref:csioz": 1161641, "addr:housenumber": "13", "addr:city": "Niemce", "addr:postcode": "21-025", "amenity": "pharmacy", "addr:street": "Szkolna", "name": null, "addr:flats": null }, "geometry": { "type": "Point", "coordinates": [ 22.620107068267302, 51.358073439667209 ] } },
{ "type": "Feature", "properties": { "ref:csioz": 1161875, "addr:housenumber": "16", "addr:city": "Jabłonna-Majątek", "addr:postcode": "23-114", "amenity": "pharmacy", "addr:street": null, "name": null, "addr:flats": null }, "geometry": { "type": "Point", "coordinates": [ 22.579608208226581, 51.096021323227134 ] } },
{ "type": "Feature", "properties": { "ref:csioz": 1163016, "addr:housenumber": "3", "addr:city": "Niemce", "addr:postcode": "21-025", "amenity": "pharmacy", "addr:street": "Zielona", "name": "Apteka Vikamed", "addr:flats": null }, "geometry": { "type": "Point", "coordinates": [ 22.617922417882045, 51.359252643987091 ] } },
{ "type": "Feature", "properties": { "ref:csioz": 1163548, "addr:housenumber": "17c", "addr:city": "Wólka", "addr:postcode": "20-258", "amenity": "pharmacy", "addr:street": null, "name": "Top-Farm", "addr:flats": null }, "geometry": { "type": "Point", "coordinates": [ 22.633694505978475, 51.264524786730085 ] } },
{ "type": "Feature", "properties": { "ref:csioz": 1163998, "addr:housenumber": "51B", "addr:city": "Jastków Panieńszczyzna", "addr:postcode": "21-002", "amenity": "pharmacy", "addr:street": "Al. Warszawska", "name": null, "addr:flats": null }, "geometry": { "type": "Point", "coordinates": [ 22.435349000037299, 51.303958000014823 ] } },
{ "type": "Feature", "properties": { "ref:csioz": 1173240, "addr:housenumber": "3", "addr:city": "Dys", "addr:postcode": "20-003", "amenity": "pharmacy", "addr:street": "Lubelska", "name": "Punkt Apteczny Paulina Sierpińska", "addr:flats": null }, "geometry": { "type": "Point", "coordinates": [ 22.545888683708654, 51.289383621362489 ] } },
{ "type": "Feature", "properties": { "ref:csioz": 1187704, "addr:housenumber": "23A", "addr:city": "Krasienin-Kolonia", "addr:postcode": "21-025", "amenity": "pharmacy", "addr:street": "KRA", "name": "Apteka Centrum", "addr:flats": null }, "geometry": { "type": "Point", "coordinates": [ 22.466974773834622, 51.36230827744329 ] } },
{ "type": "Feature", "properties": { "ref:csioz": 1199855, "addr:housenumber": "6 C", "addr:city": "Wólka", "addr:postcode": "20-258", "amenity": "pharmacy", "addr:street": null, "name": "Apteka Rodzinna Beata Gęca", "addr:flats": null }, "geometry": { "type": "Point", "coordinates": [ 22.634209922808452, 51.263974292910667 ] } },
{ "type": "Feature", "properties": { "ref:csioz": 1224489, "addr:housenumber": "160", "addr:city": "Niemce", "addr:postcode": "21-025", "amenity": "pharmacy", "addr:street": "Lubelska", "name": "Apteka Vikamed", "addr:flats": null }, "geometry": { "type": "Point", "coordinates": [ 22.621559450566281, 51.35505569390368 ] } },
{ "type": "Feature", "properties": { "ref:csioz": 1158345, "addr:housenumber": "35C", "addr:city": "Krężnica Okrągła", "addr:postcode": "24-200", "amenity": "pharmacy", "addr:street": null, "name": null, "addr:flats": null }, "geometry": { "type": "Point", "coordinates": [ 22.231025224218047, 51.163646789850908 ] } },
{ "type": "Feature", "properties": { "ref:csioz": 1162806, "addr:housenumber": "19", "addr:city": "Bełżyce", "addr:postcode": "24-200", "amenity": "pharmacy", "addr:street": "Lubelska", "name": null, "addr:flats": null }, "geometry": { "type": "Point", "coordinates": [ 22.283820981111322, 51.175218732084055 ] } },
{ "type": "Feature", "properties": { "ref:csioz": 1163849, "addr:housenumber": "34", "addr:city": "Garbów", "addr:postcode": "21-080", "amenity": "pharmacy", "addr:street": null, "name": null, "addr:flats": null }, "geometry": { "type": "Point", "coordinates": [ 22.334094185576376, 51.353470696340935 ] } },
{ "type": "Feature", "properties": { "ref:csioz": 1208834, "addr:housenumber": "2", "addr:city": "Garbów", "addr:postcode": "21-080", "amenity": "pharmacy", "addr:street": "Młyńska", "name": "\"Apteka \"\"Nova\"\" Prężyna I Wspólnicy Spółka Jawna\"", "addr:flats": null }, "geometry": { "type": "Point", "coordinates": [ 22.33444480202656, 51.354685495747184 ] } },
{ "type": "Feature", "properties": { "ref:csioz": 1106287, "addr:housenumber": "10", "addr:city": "Palikije I", "addr:postcode": "24-204", "amenity": "pharmacy", "addr:street": null, "name": "Punkt Apteczny Mgr Urszula Wójcik", "addr:flats": null }, "geometry": { "type": "Point", "coordinates": [ 22.303099435355055, 51.23205737768771 ] } },
{ "type": "Feature", "properties": { "ref:csioz": 1163801, "addr:housenumber": "2", "addr:city": "Bełżyce", "addr:postcode": "24-200", "amenity": "pharmacy", "addr:street": "Polna", "name": null, "addr:flats": null }, "geometry": { "type": "Point", "coordinates": [ 22.283656812555314, 51.174814496984936 ] } },
{ "type": "Feature", "properties": { "ref:csioz": 1158234, "addr:housenumber": "57", "addr:city": "Bełżyce", "addr:postcode": "24-200", "amenity": "pharmacy", "addr:street": "Lubelska", "name": "Doz Apteka.Dbam O Zdrowie.Elwin", "addr:flats": null }, "geometry": { "type": "Point", "coordinates": [ 22.28840630726258, 51.17640910597413 ] } },
{ "type": "Feature", "properties": { "ref:csioz": 1163294, "addr:housenumber": "2", "addr:city": "Bełżyce", "addr:postcode": "24-200", "amenity": "pharmacy", "addr:street": "Bednarska", "name": null, "addr:flats": null }, "geometry": { "type": "Point", "coordinates": [ 22.281805606246152, 51.173027391971509 ] } },
{ "type": "Feature", "properties": { "ref:csioz": 1164028, "addr:housenumber": "45", "addr:city": "Bełżyce", "addr:postcode": "24-200", "amenity": "pharmacy", "addr:street": "Tysiąclecia", "name": null, "addr:flats": null }, "geometry": { "type": "Point", "coordinates": [ 22.282239773193417, 51.174303993470488 ] } },
{ "type": "Feature", "properties": { "ref:csioz": 1197488, "addr:housenumber": "10", "addr:city": "Zagrody", "addr:postcode": "21-080", "amenity": "pharmacy", "addr:street": "Jana Pawła II", "name": "Apteka Piotr Sikora", "addr:flats": null }, "geometry": { "type": "Point", "coordinates": [ 22.2955497712347, 51.36330178187653 ] } },
{ "type": "Feature", "properties": { "ref:csioz": 1203293, "addr:housenumber": "6", "addr:city": "Bełżyce", "addr:postcode": "24-200", "amenity": "pharmacy", "addr:street": "Fabryczna", "name": "Apteka Społeczna", "addr:flats": "14" }, "geometry": { "type": "Point", "coordinates": [ 22.296368605588256, 51.175304476013672 ] } },
{ "type": "Feature", "properties": { "ref:csioz": 1207236, "addr:housenumber": "22", "addr:city": "Bełżyce", "addr:postcode": "24-200", "amenity": "pharmacy", "addr:street": "Bychawska", "name": "Doz Apteka.Dbam O Zdrowie.Elwin", "addr:flats": null }, "geometry": { "type": "Point", "coordinates": [ 22.295469221655608, 51.17323445784907 ] } }
]
}
