{
"type": "FeatureCollection",
"name": "JPT_KOD_JE_0615",
"features": [
{ "type": "Feature", "properties": { "ref:csioz": 1155597, "name": "Apteka Vita", "addr:street": "Rynek", "addr:housenumber": "10 D", "addr:city": "Radzyń Podlaski", "addr:postcode": "21-300", "amenity": "pharmacy" }, "geometry": { "type": "Point", "coordinates": [ 22.620452419413251, 51.7839435212599 ] } },
{ "type": "Feature", "properties": { "ref:csioz": 1155629, "name": "Sanus", "addr:housenumber": "77", "addr:city": "Ulan Majorat", "addr:postcode": "21-307", "amenity": "pharmacy" }, "geometry": { "type": "Point", "coordinates": [ 22.474421000036905, 51.818004000015662 ] } },
{ "type": "Feature", "properties": { "ref:csioz": 1155678, "name": "Remedium", "addr:street": "Wyszyńskiego", "addr:housenumber": "17", "addr:city": "Radzyń Podlaski", "addr:postcode": "21-300", "amenity": "pharmacy" }, "geometry": { "type": "Point", "coordinates": [ 22.610943414588998, 51.776249616141136 ] } },
{ "type": "Feature", "properties": { "ref:csioz": 1155834, "name": "Apteka Centrum", "addr:street": "Warszawska", "addr:housenumber": "17", "addr:city": "Radzyń Podlaski", "addr:postcode": "21-300", "amenity": "pharmacy" }, "geometry": { "type": "Point", "coordinates": [ 22.615908347651441, 51.782307579646087 ] } },
{ "type": "Feature", "properties": { "ref:csioz": 1156101, "addr:street": "Sitkowskiego", "addr:housenumber": "1", "addr:city": "Radzyń Podlaski", "addr:postcode": "21-300", "amenity": "pharmacy" }, "geometry": { "type": "Point", "coordinates": [ 22.623561630463321, 51.779207923561344 ] } },
{ "type": "Feature", "properties": { "ref:csioz": 1156450, "name": "Vita", "addr:street": "Plac Wolności", "addr:housenumber": "2", "addr:city": "Komarówka Podlaska", "addr:postcode": "21-311", "amenity": "pharmacy" }, "geometry": { "type": "Point", "coordinates": [ 22.944110436278493, 51.802588252689979 ] } },
{ "type": "Feature", "properties": { "ref:csioz": 1231047, "name": "Radix pharma", "addr:street": "Wisznicka", "addr:housenumber": "153", "addr:city": "Radzyń Podlaski", "addr:postcode": "21-300", "amenity": "pharmacy", "addr:flats": null }, "geometry": { "type": "Point", "coordinates": [ 22.606712176370248, 51.773072576180098 ] } },
{ "type": "Feature", "properties": { "ref:csioz": 1164044, "name": "Apteka Polak Marzena", "addr:street": "Radzyńska", "addr:housenumber": "19", "addr:city": "Czemierniki", "addr:postcode": "21-306", "amenity": "pharmacy" }, "geometry": { "type": "Point", "coordinates": [ 22.637294743954612, 51.674244063588333 ] } },
{ "type": "Feature", "properties": { "ref:csioz": 1164122, "name": "Apteka Mgr Farm. Ewa Jędrys", "addr:street": "Ostrowiecka", "addr:housenumber": "38", "addr:city": "Radzyń Podlaski", "addr:postcode": "21-300", "amenity": "pharmacy" }, "geometry": { "type": "Point", "coordinates": [ 22.61647530995603, 51.783133074992961 ] } },
{ "type": "Feature", "properties": { "ref:csioz": 1170854, "addr:housenumber": "119C", "addr:city": "Brzozowica Duża", "addr:postcode": "21-302", "amenity": "pharmacy" }, "geometry": { "type": "Point", "coordinates": [ 22.607221677986079, 51.949265149414899 ] } },
{ "type": "Feature", "properties": { "ref:csioz": 1174448, "name": "Apteka Lokalna Tomasz Kuna", "addr:street": "Wojska Polskiego", "addr:housenumber": "11", "addr:city": "Komarówka Podlaska", "addr:postcode": "21-311", "amenity": "pharmacy", "addr:flats": "1" }, "geometry": { "type": "Point", "coordinates": [ 22.95191936883322, 51.805203467555344 ] } },
{ "type": "Feature", "properties": { "ref:csioz": 1178540, "name": "Apteka Vita W Topazie", "addr:street": "Zabielska", "addr:housenumber": "110", "addr:city": "Radzyń Podlaski", "addr:postcode": "21-300", "amenity": "pharmacy" }, "geometry": { "type": "Point", "coordinates": [ 22.604536000044519, 51.77373900001573 ] } },
{ "type": "Feature", "properties": { "ref:csioz": 1106067, "name": "Apteka Nowa", "addr:street": "Średnia", "addr:housenumber": "33", "addr:city": "Wohyń", "addr:postcode": "21-310", "amenity": "pharmacy" }, "geometry": { "type": "Point", "coordinates": [ 22.785615870491753, 51.756757333855894 ] } },
{ "type": "Feature", "properties": { "ref:csioz": 1155701, "name": "Apteka Centrum", "addr:street": "Wisznicka", "addr:housenumber": "111", "addr:city": "Radzyń Podlaski", "addr:postcode": "21-300", "amenity": "pharmacy" }, "geometry": { "type": "Point", "coordinates": [ 22.607524563356687, 51.772614912363458 ] } },
{ "type": "Feature", "properties": { "ref:csioz": 1155725, "addr:street": "Chomiczewskiego", "addr:housenumber": "23", "addr:city": "Radzyń Podlaski", "addr:postcode": "21-300", "amenity": "pharmacy" }, "geometry": { "type": "Point", "coordinates": [ 22.615909013132939, 51.779313421109642 ] } },
{ "type": "Feature", "properties": { "ref:csioz": 1155953, "addr:street": "Lubelska", "addr:housenumber": "30", "addr:city": "Kąkolewnica", "addr:postcode": "21-302", "amenity": "pharmacy" }, "geometry": { "type": "Point", "coordinates": [ 22.704015871361342, 51.901492397120336 ] } },
{ "type": "Feature", "properties": { "ref:csioz": 1156362, "name": "Apteka Dbam O Zdrowie", "addr:street": "Spółdzielcza", "addr:housenumber": "1", "addr:city": "Radzyń Podlaski", "addr:postcode": "21-300", "amenity": "pharmacy" }, "geometry": { "type": "Point", "coordinates": [ 22.610081191153686, 51.775956713341536 ] } },
{ "type": "Feature", "properties": { "ref:csioz": 1158007, "addr:street": "Spółdzielcza", "addr:housenumber": "2", "addr:city": "Borki", "addr:postcode": "21-345", "amenity": "pharmacy" }, "geometry": { "type": "Point", "coordinates": [ 22.523836462547361, 51.721187691897647 ] } },
{ "type": "Feature", "properties": { "ref:csioz": 1195470, "name": "\"'Nasze Apteki'\"", "addr:street": "Ostrowiecka", "addr:housenumber": "18", "addr:city": "Radzyń Podlaski", "addr:postcode": "21-300", "amenity": "pharmacy" }, "geometry": { "type": "Point", "coordinates": [ 22.619699412295603, 51.783017009469127 ] } },
{ "type": "Feature", "properties": { "ref:csioz": 1200228, "name": "Apteka Proxima", "addr:street": "Zamkowa", "addr:housenumber": "12", "addr:city": "Czemierniki", "addr:postcode": "21-306", "amenity": "pharmacy" }, "geometry": { "type": "Point", "coordinates": [ 22.64425258828139, 51.675627426851264 ] } },
{ "type": "Feature", "properties": { "ref:csioz": 1224836, "name": "\"Apteka \"\"Rodzinna\"\"\"", "addr:street": "Rynek", "addr:housenumber": "10", "addr:city": "Radzyń Podlaski", "addr:postcode": "21-300", "amenity": "pharmacy", "addr:flats": "J" }, "geometry": { "type": "Point", "coordinates": [ 22.621818480896227, 51.783938865109974 ] } },
{ "type": "Feature", "properties": { "ref:csioz": 1225585, "name": "Punkt Apteczny Rodzinny", "addr:housenumber": "131D", "addr:city": "Polskowola", "addr:postcode": "21-302", "amenity": "pharmacy" }, "geometry": { "type": "Point", "coordinates": [ 22.656769302433748, 51.932518658386087 ] } }
]
}
