{
"type": "FeatureCollection",
"name": "JPT_KOD_JE_1821",
"features": [
{ "type": "Feature", "properties": { "ref:csioz": 1142867, "name": "Apteka Omega", "addr:street": "Krasickich", "addr:housenumber": "6", "addr:city": "Lesko", "addr:postcode": "38-600", "amenity": "pharmacy" }, "geometry": { "type": "Point", "coordinates": [ 22.32845784597124, 49.468435068808276 ] } },
{ "type": "Feature", "properties": { "ref:csioz": 1142872, "addr:street": "Rynek", "addr:housenumber": "19", "addr:city": "Lesko", "addr:postcode": "38-600", "amenity": "pharmacy" }, "geometry": { "type": "Point", "coordinates": [ 22.33009587290827, 49.469928154815882 ] } },
{ "type": "Feature", "properties": { "ref:csioz": 1142895, "addr:street": "Kazimierza Wielkiego", "addr:housenumber": "18", "addr:city": "Baligród", "addr:postcode": "38-606", "amenity": "pharmacy" }, "geometry": { "type": "Point", "coordinates": [ 22.286836093872111, 49.338719190841438 ] } },
{ "type": "Feature", "properties": { "ref:csioz": 1147212, "addr:street": "Rynek", "addr:housenumber": "11", "addr:city": "Lesko", "addr:postcode": "38-600", "amenity": "pharmacy" }, "geometry": { "type": "Point", "coordinates": [ 22.329446725263821, 49.46930526509918 ] } },
{ "type": "Feature", "properties": { "ref:csioz": 1178579, "name": "Punkt apteczny", "addr:housenumber": "210", "addr:city": "Olszanica", "addr:postcode": "38-722", "amenity": "pharmacy" }, "geometry": { "type": "Point", "coordinates": [ 22.444975885918421, 49.475984485341485 ] } },
{ "type": "Feature", "properties": { "ref:csioz": 1182724, "name": "Danfarm Punkt Apteczny Cisna", "addr:housenumber": "26", "addr:city": "Cisna", "addr:postcode": "38-607", "amenity": "pharmacy" }, "geometry": { "type": "Point", "coordinates": [ 22.328384348836082, 49.212418854961385 ] } },
{ "type": "Feature", "properties": { "ref:csioz": 1184925, "name": "Artfarm", "addr:street": "Stawowa", "addr:housenumber": "22", "addr:city": "Lesko", "addr:postcode": "38-600", "amenity": "pharmacy" }, "geometry": { "type": "Point", "coordinates": [ 22.325072000039121, 49.480649000012058 ] } },
{ "type": "Feature", "properties": { "ref:csioz": 1138426, "name": "Apteka Szpitalna", "addr:street": "Kochanowskiego", "addr:housenumber": "2", "addr:city": "Lesko", "addr:postcode": "38-600", "amenity": "pharmacy" }, "geometry": { "type": "Point", "coordinates": [ 22.332311962110087, 49.473788692496228 ] } },
{ "type": "Feature", "properties": { "ref:csioz": 1142880, "name": "Maja", "addr:street": "Unii Brzeskiej", "addr:housenumber": "9", "addr:city": "Lesko", "addr:postcode": "38-600", "amenity": "pharmacy" }, "geometry": { "type": "Point", "coordinates": [ 22.331845252784092, 49.467969688791968 ] } },
{ "type": "Feature", "properties": { "ref:csioz": 1142910, "addr:street": "Zdrojowa", "addr:housenumber": "4", "addr:city": "Polańczyk", "addr:postcode": "38-610", "amenity": "pharmacy" }, "geometry": { "type": "Point", "coordinates": [ 22.4268746142575, 49.370958492103362 ] } },
{ "type": "Feature", "properties": { "ref:csioz": 1187868, "name": "Apteka Omega", "addr:street": "Zdrojowa", "addr:housenumber": "17", "addr:city": "Polańczyk", "addr:postcode": "38-610", "amenity": "pharmacy", "addr:flats": "1" }, "geometry": { "type": "Point", "coordinates": [ 22.429534962887743, 49.371622351407709 ] } },
{ "type": "Feature", "properties": { "ref:csioz": 1221479, "name": "Danfarm Apteka Olszanica", "addr:housenumber": "208", "addr:city": "Olszanica", "addr:postcode": "38-722", "amenity": "pharmacy" }, "geometry": { "type": "Point", "coordinates": [ 22.445131959704728, 49.476740842921281 ] } }
]
}
