{
"type": "FeatureCollection",
"name": "JPT_KOD_JE_1804",
"features": [
{ "type": "Feature", "properties": { "ref:csioz": 1151154, "addr:street": "Legionów", "addr:housenumber": "4a", "addr:city": "Radymno", "addr:postcode": "37-550", "amenity": "pharmacy" }, "geometry": { "type": "Point", "coordinates": [ 22.81951257640187, 49.950609572518289 ] } },
{ "type": "Feature", "properties": { "ref:csioz": 1166357, "addr:street": "Legionów", "addr:housenumber": "1", "addr:city": "Radymno", "addr:postcode": "37-550", "amenity": "pharmacy", "name": "Medika" }, "geometry": { "type": "Point", "coordinates": [ 22.819664682760749, 49.950355761223747 ] } },
{ "type": "Feature", "properties": { "ref:csioz": 1175596, "addr:street": "Rynek", "addr:housenumber": "11", "addr:city": "Radymno", "addr:postcode": "37-550", "amenity": "pharmacy", "name": "Różana" }, "geometry": { "type": "Point", "coordinates": [ 22.819210000075735, 49.951990000013296 ] } },
{ "type": "Feature", "properties": { "ref:csioz": 1151165, "addr:street": "Rynek", "addr:housenumber": "23", "addr:city": "Radymno", "addr:postcode": "37-550", "amenity": "pharmacy", "name": "Apteka u Mnicha" }, "geometry": { "type": "Point", "coordinates": [ 22.817982651152199, 49.951250532902648 ] } },
{ "type": "Feature", "properties": { "ref:csioz": 1165240, "addr:housenumber": "141", "addr:city": "Zapałów", "addr:postcode": "37-544", "amenity": "pharmacy" }, "geometry": { "type": "Point", "coordinates": [ 22.879919354060249, 50.090330193601453 ] } },
{ "type": "Feature", "properties": { "ref:csioz": 1195195, "addr:housenumber": "35A", "addr:city": "Laszki", "addr:postcode": "37-543", "amenity": "pharmacy", "name": "Melisa" }, "geometry": { "type": "Point", "coordinates": [ 22.889565124099526, 50.020502960051012 ] } },
{ "type": "Feature", "properties": { "ref:csioz": 1218857, "addr:street": "Lwowska", "addr:housenumber": "9", "addr:city": "Radymno", "addr:postcode": "37-550", "amenity": "pharmacy", "name": "Nasza Apteka" }, "geometry": { "type": "Point", "coordinates": [ 22.822889967090124, 49.949164590930572 ] } },
{ "type": "Feature", "properties": { "ref:csioz": 1138314, "addr:street": "3-go Maja", "addr:housenumber": "70", "addr:city": "Jarosław", "addr:postcode": "37-500", "amenity": "pharmacy", "name": "\"Apteka Szpitalna \"\"Centrum Opieki Medycznej\"\"\"" }, "geometry": { "type": "Point", "coordinates": [ 22.693425716319606, 50.013555389137615 ] } },
{ "type": "Feature", "properties": { "ref:csioz": 1143589, "addr:street": "Ignacego Kraszewskiego", "addr:housenumber": "9", "addr:city": "Jarosław", "addr:postcode": "37-500", "amenity": "pharmacy", "name": "Remedium" }, "geometry": { "type": "Point", "coordinates": [ 22.677092313339173, 50.017775429432128 ] } },
{ "type": "Feature", "properties": { "ref:csioz": 1143609, "addr:street": "Ignacego Kraszewskiego", "addr:housenumber": "24a", "addr:city": "Jarosław", "addr:postcode": "37-500", "amenity": "pharmacy", "name": "Medex" }, "geometry": { "type": "Point", "coordinates": [ 22.676877494302481, 50.019643435699507 ] } },
{ "type": "Feature", "properties": { "ref:csioz": 1151031, "addr:street": "Juliusza Słowackiego", "addr:housenumber": "17", "addr:city": "Jarosław", "addr:postcode": "37-500", "amenity": "pharmacy", "name": "Optical" }, "geometry": { "type": "Point", "coordinates": [ 22.678331872942671, 50.014386118760825 ] } },
{ "type": "Feature", "properties": { "ref:csioz": 1151044, "addr:street": "Juliusza Słowackiego", "addr:housenumber": "38", "addr:city": "Jarosław", "addr:postcode": "37-500", "amenity": "pharmacy" }, "geometry": { "type": "Point", "coordinates": [ 22.681203856044135, 50.010264744219093 ] } },
{ "type": "Feature", "properties": { "ref:csioz": 1151053, "addr:street": "Romualda Traugutta", "addr:housenumber": "13", "addr:city": "Jarosław", "addr:postcode": "37-500", "amenity": "pharmacy", "name": "Medex" }, "geometry": { "type": "Point", "coordinates": [ 22.674361905644155, 50.007754598107454 ] } },
{ "type": "Feature", "properties": { "ref:csioz": 1151089, "addr:street": "3 Maja", "addr:housenumber": "65", "addr:city": "Jarosław", "addr:postcode": "37-500", "amenity": "pharmacy", "name": "Nova" }, "geometry": { "type": "Point", "coordinates": [ 22.700389122534265, 50.009752342858469 ] } },
{ "type": "Feature", "properties": { "ref:csioz": 1151090, "addr:street": "Osiedle im. Wincentego Witosa", "addr:housenumber": "2", "addr:city": "Jarosław", "addr:postcode": "37-500", "amenity": "pharmacy", "name": "\"'Dr.Max'\"" }, "geometry": { "type": "Point", "coordinates": [ 22.666674395653299, 50.020168089808671 ] } },
{ "type": "Feature", "properties": { "ref:csioz": 1151106, "addr:housenumber": "235", "addr:city": "Chłopice", "addr:postcode": "37-561", "amenity": "pharmacy" }, "geometry": { "type": "Point", "coordinates": [ 22.674425215313903, 49.947960717164193 ] } },
{ "type": "Feature", "properties": { "ref:csioz": 1151133, "addr:street": "Jana Pawła II", "addr:housenumber": "3", "addr:city": "Pruchnik", "addr:postcode": "37-560", "amenity": "pharmacy" }, "geometry": { "type": "Point", "coordinates": [ 22.516970160542481, 49.906801628592504 ] } },
{ "type": "Feature", "properties": { "ref:csioz": 1151179, "addr:housenumber": "645", "addr:city": "Rokietnica", "addr:postcode": "37-562", "amenity": "pharmacy" }, "geometry": { "type": "Point", "coordinates": [ 22.640836744276218, 49.901081774783023 ] } },
{ "type": "Feature", "properties": { "ref:csioz": 1165222, "addr:street": "Sportowa", "addr:housenumber": "7", "addr:city": "Szówsko", "addr:postcode": "37-522", "amenity": "pharmacy", "name": "Danfarm" }, "geometry": { "type": "Point", "coordinates": [ 22.707370844080657, 50.045092096642101 ] } },
{ "type": "Feature", "properties": { "ref:csioz": 1183259, "addr:street": "Jaśminowa", "addr:housenumber": "2", "addr:city": "Wiązownica", "addr:postcode": "37-522", "amenity": "pharmacy", "name": "Apteka Lafarma" }, "geometry": { "type": "Point", "coordinates": [ 22.71552522570903, 50.077880225964002 ] } },
{ "type": "Feature", "properties": { "ref:csioz": 1211813, "addr:street": "3 Maja", "addr:housenumber": "64", "addr:city": "Jarosław", "addr:postcode": "37-500", "amenity": "pharmacy", "name": "Medex" }, "geometry": { "type": "Point", "coordinates": [ 22.692994260865159, 50.013720341960699 ] } },
{ "type": "Feature", "properties": { "ref:csioz": 1143577, "addr:street": "Ignacego Kraszewskiego", "addr:housenumber": "5", "addr:city": "Jarosław", "addr:postcode": "37-500", "amenity": "pharmacy", "name": "Dr.Max" }, "geometry": { "type": "Point", "coordinates": [ 22.677203889461946, 50.017444290771081 ] } },
{ "type": "Feature", "properties": { "ref:csioz": 1143491, "addr:street": "Grodzka", "addr:housenumber": "3", "addr:city": "Jarosław", "addr:postcode": "37-500", "amenity": "pharmacy", "name": "Medex" }, "geometry": { "type": "Point", "coordinates": [ 22.682928093592984, 50.017707479516815 ] } },
{ "type": "Feature", "properties": { "ref:csioz": 1143502, "addr:street": "Grunwaldzka", "addr:housenumber": "1", "addr:city": "Jarosław", "addr:postcode": "37-500", "amenity": "pharmacy", "name": "Apteka Vademecum Blisko I Tanio!" }, "geometry": { "type": "Point", "coordinates": [ 22.680736220939576, 50.016735852086939 ] } },
{ "type": "Feature", "properties": { "ref:csioz": 1143515, "addr:street": "Grunwaldzka", "addr:housenumber": "26", "addr:city": "Jarosław", "addr:postcode": "37-500", "amenity": "pharmacy" }, "geometry": { "type": "Point", "coordinates": [ 22.677941343534748, 50.016279189240706 ] } },
{ "type": "Feature", "properties": { "ref:csioz": 1143531, "addr:street": "Osiedle Kombatantów", "addr:housenumber": "20", "addr:city": "Jarosław", "addr:postcode": "37-500", "amenity": "pharmacy", "name": "Apteka Słoneczna" }, "geometry": { "type": "Point", "coordinates": [ 22.698578708836518, 50.010316578815278 ] } },
{ "type": "Feature", "properties": { "ref:csioz": 1143553, "addr:street": "Tadeusza Kościuszki", "addr:housenumber": "25", "addr:city": "Jarosław", "addr:postcode": "37-500", "amenity": "pharmacy" }, "geometry": { "type": "Point", "coordinates": [ 22.672951654993298, 50.018464212193543 ] } },
{ "type": "Feature", "properties": { "ref:csioz": 1143566, "addr:street": "Tadeusza Kościuszki", "addr:housenumber": "29a", "addr:city": "Jarosław", "addr:postcode": "37-500", "amenity": "pharmacy", "name": "Medex" }, "geometry": { "type": "Point", "coordinates": [ 22.667846916814831, 50.017536893371116 ] } },
{ "type": "Feature", "properties": { "ref:csioz": 1150964, "addr:street": "Księdza Mieczysława Lisińskiego", "addr:housenumber": "10", "addr:city": "Jarosław", "addr:postcode": "37-500", "amenity": "pharmacy", "name": "Apteka Jarosławska" }, "geometry": { "type": "Point", "coordinates": [ 22.683959000062366, 50.015561000013157 ] } },
{ "type": "Feature", "properties": { "ref:csioz": 1150978, "addr:street": "Osiedle 1000-lecia", "addr:housenumber": "12", "addr:city": "Jarosław", "addr:postcode": "37-500", "amenity": "pharmacy", "name": "\"'Dr.Max'\"" }, "geometry": { "type": "Point", "coordinates": [ 22.695140404679947, 50.013371258173997 ] } },
{ "type": "Feature", "properties": { "ref:csioz": 1151015, "addr:street": "Lucjana Siemieńskiego", "addr:housenumber": "7", "addr:city": "Jarosław", "addr:postcode": "37-500", "amenity": "pharmacy", "name": "Alexmed" }, "geometry": { "type": "Point", "coordinates": [ 22.67277269824427, 50.009201279074674 ] } },
{ "type": "Feature", "properties": { "ref:csioz": 1151187, "addr:housenumber": "201", "addr:city": "Roźwienica", "addr:postcode": "37-565", "amenity": "pharmacy", "name": "Lawenda" }, "geometry": { "type": "Point", "coordinates": [ 22.600351309456872, 49.952089800536953 ] } },
{ "type": "Feature", "properties": { "ref:csioz": 1173908, "addr:street": "Grunwaldzka", "addr:housenumber": "11", "addr:city": "Jarosław", "addr:postcode": "37-500", "amenity": "pharmacy", "name": "Apteka Słoneczna" }, "geometry": { "type": "Point", "coordinates": [ 22.678470062252917, 50.016069808961532 ] } },
{ "type": "Feature", "properties": { "ref:csioz": 1180449, "addr:street": "Słoneczna", "addr:housenumber": "2", "addr:city": "Pruchnik", "addr:postcode": "37-560", "amenity": "pharmacy", "name": "Medex" }, "geometry": { "type": "Point", "coordinates": [ 22.51163400004938, 49.907239000012815 ] } },
{ "type": "Feature", "properties": { "ref:csioz": 1189291, "addr:street": "Pruchnicka", "addr:housenumber": "6A", "addr:city": "Jarosław", "addr:postcode": "37-500", "amenity": "pharmacy", "name": "Medex" }, "geometry": { "type": "Point", "coordinates": [ 22.675465697105448, 50.008913301179241 ] } },
{ "type": "Feature", "properties": { "ref:csioz": 1197794, "addr:street": "Osiedle im. Waleriana Kalinki", "addr:housenumber": "2", "addr:city": "Jarosław", "addr:postcode": "37-500", "amenity": "pharmacy", "name": "Apteka Galicja" }, "geometry": { "type": "Point", "coordinates": [ 22.689259588472243, 50.014598124259756 ] } },
{ "type": "Feature", "properties": { "ref:csioz": 1207141, "addr:street": "Juliusza Słowackiego", "addr:housenumber": "29", "addr:city": "Jarosław", "addr:postcode": "37-500", "amenity": "pharmacy" }, "geometry": { "type": "Point", "coordinates": [ 22.677937181689884, 50.012328655009853 ] } },
{ "type": "Feature", "properties": { "ref:csioz": 1216936, "addr:street": "3 Maja", "addr:housenumber": "47B", "addr:city": "Jarosław", "addr:postcode": "37-500", "amenity": "pharmacy", "name": "Nova" }, "geometry": { "type": "Point", "coordinates": [ 22.694110065811827, 50.013593538259975 ] } },
{ "type": "Feature", "properties": { "ref:csioz": 1218275, "addr:housenumber": "147", "addr:city": "Łowce", "addr:postcode": "37-554", "amenity": "pharmacy", "name": "Punkt Apteczny Medika" }, "geometry": { "type": "Point", "coordinates": [ 22.731190036395908, 49.939803811381552 ] } },
{ "type": "Feature", "properties": { "ref:csioz": 1220044, "addr:street": "Księdza Bronisława Markiewicza", "addr:housenumber": "11a", "addr:city": "Pruchnik", "addr:postcode": "37-560", "amenity": "pharmacy", "name": "Apteka Lafarma" }, "geometry": { "type": "Point", "coordinates": [ 22.512355554683836, 49.904814576660321 ] } },
{ "type": "Feature", "properties": { "ref:csioz": 1228429, "addr:housenumber": "128C", "addr:city": "Wólka Pełkińska", "addr:postcode": "37-511", "amenity": "pharmacy", "name": "Kraina Leków" }, "geometry": { "type": "Point", "coordinates": [ 22.607570435830308, 50.092132335715441 ] } },
{ "type": "Feature", "properties": { "ref:csioz": 1151002, "addr:street": "Rynek", "addr:housenumber": "11", "addr:city": "Jarosław", "addr:postcode": "37-500", "amenity": "pharmacy", "name": "Dr.Max" }, "geometry": { "type": "Point", "coordinates": [ 22.684669219647827, 50.018948992970024 ] } },
{ "type": "Feature", "properties": { "ref:csioz": 1216948, "addr:street": "Osiedle imienia Marszałka Józefa Piłsudskiego", "addr:housenumber": "25", "addr:city": "Jarosław", "addr:postcode": "37-500", "amenity": "pharmacy", "name": "NOVA" }, "geometry": { "type": "Point", "coordinates": [ 22.665955839766966, 50.02301107323516 ] } }
]
}
